[
  {
    "id": "h-001",
    "nombre": "Hospital Nacional Dos de Mayo",
    "sector": "MINSA",
    "tipo": "I-4",
    "region": "Lima",
    "provincia": "Lima",
    "distrito": "Cercado de Lima",
    "lat": -12.0579,
    "lng": -77.0236,
    "servicios": ["Emergencias", "Laboratorio", "Rayos X", "Farmacia", "UCI"],
    "nivel_ruralidad": "Bajo",
    "direccion": "Av. Grau 13, Cercado de Lima",
    "foto": ""
  },
  {
    "id": "h-002",
    "nombre": "Hospital Nacional Edgardo Rebagliati Martins",
    "sector": "ESSALUD",
    "tipo": "I-4",
    "region": "Lima",
    "provincia": "Lima",
    "distrito": "Jesús María",
    "lat": -12.0801,
    "lng": -77.0496,
    "servicios": ["Emergencias", "Laboratorio", "Farmacia", "UCI", "Imagenología"],
    "nivel_ruralidad": "Bajo",
    "direccion": "Av. Rebagliati 490, Jesús María",
    "foto": ""
  },
  {
    "id": "h-003",
    "nombre": "Hospital Militar Central",
    "sector": "Militar",
    "tipo": "I-3",
    "region": "Lima",
    "provincia": "Lima",
    "distrito": "Jesús María",
    "lat": -12.1014,
    "lng": -77.0178,
    "servicios": ["Emergencias", "Laboratorio", "Rayos X", "Farmacia"],
    "nivel_ruralidad": "Bajo",
    "direccion": "Av. Brasil 360, Jesús María",
    "foto": ""
  },
  {
    "id": "h-004",
    "nombre": "Clínica Miraflores",
    "sector": "Privado",
    "tipo": "I-2",
    "region": "Lima",
    "provincia": "Lima",
    "distrito": "San Isidro",
    "lat": -12.1219,
    "lng": -77.0307,
    "servicios": ["Consulta Externa", "Laboratorio", "Farmacia", "Imagenología"],
    "nivel_ruralidad": "Bajo",
    "direccion": "Av. Pardo y Aliaga 640, San Isidro",
    "foto": ""
  },
  {
    "id": "h-005",
    "nombre": "Hospital Regional de Cusco",
    "sector": "MINSA",
    "tipo": "I-4",
    "region": "Cusco",
    "provincia": "Cusco",
    "distrito": "Wanchaq",
    "lat": -13.5252,
    "lng": -71.9675,
    "servicios": ["Emergencias", "Laboratorio", "Rayos X", "Maternidad", "Farmacia"],
    "nivel_ruralidad": "Medio",
    "direccion": "Av. de la Cultura s/n, Cusco",
    "foto": ""
  },
  {
    "id": "h-006",
    "nombre": "Hospital Base de Arequipa",
    "sector": "ESSALUD",
    "tipo": "I-3",
    "region": "Arequipa",
    "provincia": "Arequipa",
    "distrito": "Cercado",
    "lat": -16.3989,
    "lng": -71.535,
    "servicios": ["Emergencias", "Laboratorio", "Farmacia", "Rayos X"],
    "nivel_ruralidad": "Bajo",
    "direccion": "Av. Periférica s/n, Arequipa",
    "foto": ""
  },
  {
    "id": "h-007",
    "nombre": "Centro de Salud San Juan de Lurigancho",
    "sector": "MINSA",
    "tipo": "I-2",
    "region": "Lima",
    "provincia": "Lima",
    "distrito": "San Juan de Lurigancho",
    "lat": -12.0077,
    "lng": -77.0068,
    "servicios": ["Consulta Externa", "Farmacia", "Vacunación"],
    "nivel_ruralidad": "Bajo",
    "direccion": "Av. Próceres de la Independencia, SJL",
    "foto": ""
  },
  {
    "id": "h-008",
    "nombre": "Puesto de Salud Huancavelica Centro",
    "sector": "MINSA",
    "tipo": "I-1",
    "region": "Huancavelica",
    "provincia": "Huancavelica",
    "distrito": "Huancavelica",
    "lat": -12.785,
    "lng": -74.9722,
    "servicios": ["Consulta Externa", "Vacunación", "Telemedicina"],
    "nivel_ruralidad": "Alto",
    "direccion": "Jr. Independencia, Huancavelica",
    "foto": ""
  },
  {
    "id": "h-009",
    "nombre": "Hospital Regional de Piura",
    "sector": "MINSA",
    "tipo": "I-3",
    "region": "Piura",
    "provincia": "Piura",
    "distrito": "Piura",
    "lat": -5.1945,
    "lng": -80.6328,
    "servicios": ["Emergencias", "Laboratorio", "Rayos X", "Farmacia", "Maternidad"],
    "nivel_ruralidad": "Medio",
    "direccion": "Av. Grau s/n, Piura",
    "foto": ""
  },
  {
    "id": "h-010",
    "nombre": "Centro de Salud Tarapoto",
    "sector": "MINSA",
    "tipo": "I-2",
    "region": "San Martín",
    "provincia": "San Martín",
    "distrito": "Tarapoto",
    "lat": -6.4825,
    "lng": -76.3733,
    "servicios": ["Consulta Externa", "Laboratorio", "Farmacia", "Telemedicina"],
    "nivel_ruralidad": "Medio",
    "direccion": "Jr. San Martín 220, Tarapoto",
    "foto": ""
  }
]
